{"businesses": [{"id": "crab-hero-east-lansing", "name": "Crab Hero", "image_url": "https://s3-media2.fl.yelpcdn.com/bphoto/deUXEA3f19sWqFSSeqQjsw/o.jpg", "is_closed": false, "url": "https://www.yelp.com/biz/crab-hero-east-lansing?adjust_creative=GJZCdgdhCvkOGUConDnXPg&utm_campaign=yelp_api_v3&utm_medium=api_v3_business_search&utm_source=GJZCdgdhCvkOGUConDnXPg", "review_count": 10, "categories": [{"alias": "seafood", "title": "Seafood"}, {"alias": "fishnchips", "title": "Fish & Chips"}, {"alias": "cajun", "title": "Cajun/Creole"}], "rating": 5.0, "coordinates": {"latitude": 42.7358466, "longitude": -84.4816632}, "transactions": [], "price": "$$$", "location": {"address1": "235 Albert Ave", "address2": null, "address3": "", "city": "East Lansing", "zip_code": "48823", "country": "US", "state": "MI", "display_address": ["235 Albert Ave", "East Lansing, MI 48823"]}, "phone": "+15176640666", "display_phone": "(517) 664-0666", "distance": 575.12785711647}, {"id": "pok\u00e9-lab-east-lansing-3", "name": "Pok\u00e9 Lab", "image_url": "https://s3-media2.fl.yelpcdn.com/bphoto/PMtJ2g4uUbq_4u3tOvVh2A/o.jpg", "is_closed": false, "url": "https://www.yelp.com/biz/pok%C3%A9-lab-east-lansing-3?adjust_creative=GJZCdgdhCvkOGUConDnXPg&utm_campaign=yelp_api_v3&utm_medium=api_v3_business_search&utm_source=GJZCdgdhCvkOGUConDnXPg", "review_count": 12, "categories": [{"alias": "poke", "title": "Poke"}, {"alias": "korean", "title": "Korean"}, {"alias": "sushi", "title": "Sushi Bars"}], "rating": 4.5, "coordinates": {"latitude": 42.7359142530297, "longitude": -84.4809425981372}, "transactions": [], "price": "$$", "location": {"address1": "245 Ann St", "address2": null, "address3": "", "city": "East Lansing", "zip_code": "48823", "country": "US", "state": "MI", "display_address": ["245 Ann St", "East Lansing, MI 48823"]}, "phone": "+15172202988", "display_phone": "(517) 220-2988", "distance": 566.147479686192}, {"id": "hopcat-east-lansing", "name": "HopCat", "image_url": "https://s3-media4.fl.yelpcdn.com/bphoto/v0X1fr1jPL5TXiAT0bM-RQ/o.jpg", "is_closed": false, "url": "https://www.yelp.com/biz/hopcat-east-lansing?adjust_creative=GJZCdgdhCvkOGUConDnXPg&utm_campaign=yelp_api_v3&utm_medium=api_v3_business_search&utm_source=GJZCdgdhCvkOGUConDnXPg", "review_count": 317, "categories": [{"alias": "pubs", "title": "Pubs"}, {"alias": "tradamerican", "title": "American (Traditional)"}], "rating": 4.0, "coordinates": {"latitude": 42.7357827745332, "longitude": -84.4818967913957}, "transactions": [], "price": "$$", "location": {"address1": "300 Grove St", "address2": "", "address3": "", "city": "East Lansing", "zip_code": "48823", "country": "US", "state": "MI", "display_address": ["300 Grove St", "East Lansing, MI 48823"]}, "phone": "+15178164300", "display_phone": "(517) 816-4300", "distance": 634.017092903174}, {"id": "streetkitchen-lansing", "name": "StreetKitchen", "image_url": "https://s3-media2.fl.yelpcdn.com/bphoto/j1oGia1b25gA-ZESAAiz7g/o.jpg", "is_closed": false, "url": "https://www.yelp.com/biz/streetkitchen-lansing?adjust_creative=GJZCdgdhCvkOGUConDnXPg&utm_campaign=yelp_api_v3&utm_medium=api_v3_business_search&utm_source=GJZCdgdhCvkOGUConDnXPg", "review_count": 18, "categories": [{"alias": "comfortfood", "title": "Comfort Food"}, {"alias": "gastropubs", "title": "Gastropubs"}], "rating": 5.0, "coordinates": {"latitude": 42.73292, "longitude": -84.51292}, "transactions": [], "price": "$$", "location": {"address1": "2722 E Michigan Ave", "address2": "", "address3": null, "city": "Lansing", "zip_code": "48912", "country": "US", "state": "MI", "display_address": ["2722 E Michigan Ave", "Lansing, MI 48912"]}, "phone": "", "display_phone": "", "distance": 3095.26177615987}, {"id": "boiling-pots-east-lansing", "name": "Boiling Pots", "image_url": "https://s3-media2.fl.yelpcdn.com/bphoto/Js-PaC3M1YHuzoSMV7z-rA/o.jpg", "is_closed": false, "url": "https://www.yelp.com/biz/boiling-pots-east-lansing?adjust_creative=GJZCdgdhCvkOGUConDnXPg&utm_campaign=yelp_api_v3&utm_medium=api_v3_business_search&utm_source=GJZCdgdhCvkOGUConDnXPg", "review_count": 47, "categories": [{"alias": "chinese", "title": "Chinese"}, {"alias": "taiwanese", "title": "Taiwanese"}, {"alias": "seafood", "title": "Seafood"}], "rating": 4.0, "coordinates": {"latitude": 42.7259213672877, "longitude": -84.4479211322941}, "transactions": ["delivery", "pickup"], "price": "$$", "location": {"address1": "2650 E Grand River Ave", "address2": "", "address3": "", "city": "East Lansing", "zip_code": "48823", "country": "US", "state": "MI", "display_address": ["2650 E Grand River Ave", "East Lansing, MI 48823"]}, "phone": "+15178891799", "display_phone": "(517) 889-1799", "distance": 2737.578731682722}, {"id": "crunchys-east-lansing", "name": "Crunchy's", "image_url": "https://s3-media2.fl.yelpcdn.com/bphoto/_MNLXYARN_5UfLopHKA22g/o.jpg", "is_closed": false, "url": "https://www.yelp.com/biz/crunchys-east-lansing?adjust_creative=GJZCdgdhCvkOGUConDnXPg&utm_campaign=yelp_api_v3&utm_medium=api_v3_business_search&utm_source=GJZCdgdhCvkOGUConDnXPg", "review_count": 179, "categories": [{"alias": "pubs", "title": "Pubs"}, {"alias": "burgers", "title": "Burgers"}, {"alias": "tradamerican", "title": "American (Traditional)"}], "rating": 4.0, "coordinates": {"latitude": 42.736217, "longitude": -84.487352}, "transactions": [], "price": "$", "location": {"address1": "254 W Grand River Ave", "address2": "", "address3": "", "city": "East Lansing", "zip_code": "48823", "country": "US", "state": "MI", "display_address": ["254 W Grand River Ave", "East Lansing, MI 48823"]}, "phone": "+15173512506", "display_phone": "(517) 351-2506", "distance": 998.63267472212}, {"id": "peanut-barrel-east-lansing", "name": "Peanut Barrel", "image_url": "https://s3-media2.fl.yelpcdn.com/bphoto/Jg6wv_gRqBSSnI9aAsjlXw/o.jpg", "is_closed": false, "url": "https://www.yelp.com/biz/peanut-barrel-east-lansing?adjust_creative=GJZCdgdhCvkOGUConDnXPg&utm_campaign=yelp_api_v3&utm_medium=api_v3_business_search&utm_source=GJZCdgdhCvkOGUConDnXPg", "review_count": 188, "categories": [{"alias": "burgers", "title": "Burgers"}, {"alias": "sandwiches", "title": "Sandwiches"}, {"alias": "bars", "title": "Bars"}], "rating": 4.0, "coordinates": {"latitude": 42.7338066527778, "longitude": -84.4776740531113}, "transactions": ["delivery"], "price": "$", "location": {"address1": "521 E Grand River Ave", "address2": "", "address3": "", "city": "East Lansing", "zip_code": "48823", "country": "US", "state": "MI", "display_address": ["521 E Grand River Ave", "East Lansing, MI 48823"]}, "phone": "+15173510608", "display_phone": "(517) 351-0608", "distance": 641.88771968086}, {"id": "royal-pot-east-lansing", "name": "Royal Pot", "image_url": "https://s3-media3.fl.yelpcdn.com/bphoto/lLG0N38oZ2J8cCMJhco-6w/o.jpg", "is_closed": false, "url": "https://www.yelp.com/biz/royal-pot-east-lansing?adjust_creative=GJZCdgdhCvkOGUConDnXPg&utm_campaign=yelp_api_v3&utm_medium=api_v3_business_search&utm_source=GJZCdgdhCvkOGUConDnXPg", "review_count": 16, "categories": [{"alias": "hotpot", "title": "Hot Pot"}, {"alias": "chinese", "title": "Chinese"}], "rating": 4.0, "coordinates": {"latitude": 42.7195169255622, "longitude": -84.4611632823944}, "transactions": [], "price": "$$", "location": {"address1": "4750 Hagadorn Rd", "address2": "Ste 40", "address3": null, "city": "East Lansing", "zip_code": "48823", "country": "US", "state": "MI", "display_address": ["4750 Hagadorn Rd", "Ste 40", "East Lansing, MI 48823"]}, "phone": "+15174832780", "display_phone": "(517) 483-2780", "distance": 2522.334030698396}, {"id": "bashu-hot-pot-east-lansing", "name": "Bashu Hot Pot", "image_url": "https://s3-media1.fl.yelpcdn.com/bphoto/uiLI9wu3v4D6PLZ102Zdkg/o.jpg", "is_closed": false, "url": "https://www.yelp.com/biz/bashu-hot-pot-east-lansing?adjust_creative=GJZCdgdhCvkOGUConDnXPg&utm_campaign=yelp_api_v3&utm_medium=api_v3_business_search&utm_source=GJZCdgdhCvkOGUConDnXPg", "review_count": 3, "categories": [{"alias": "hotpot", "title": "Hot Pot"}, {"alias": "szechuan", "title": "Szechuan"}], "rating": 3.5, "coordinates": {"latitude": 42.71794, "longitude": -84.4578499}, "transactions": [], "location": {"address1": "2929 Hannah Blvd", "address2": "Ste 3", "address3": "", "city": "East Lansing", "zip_code": "48823", "country": "US", "state": "MI", "display_address": ["2929 Hannah Blvd", "Ste 3", "East Lansing, MI 48823"]}, "phone": "", "display_phone": "", "distance": 2730.669481168856}, {"id": "sansu-east-lansing", "name": "Sansu", "image_url": "https://s3-media3.fl.yelpcdn.com/bphoto/V9wBdizDc0fRmqJ-smEerA/o.jpg", "is_closed": false, "url": "https://www.yelp.com/biz/sansu-east-lansing?adjust_creative=GJZCdgdhCvkOGUConDnXPg&utm_campaign=yelp_api_v3&utm_medium=api_v3_business_search&utm_source=GJZCdgdhCvkOGUConDnXPg", "review_count": 241, "categories": [{"alias": "sushi", "title": "Sushi Bars"}, {"alias": "asianfusion", "title": "Asian Fusion"}, {"alias": "japanese", "title": "Japanese"}], "rating": 4.0, "coordinates": {"latitude": 42.71949, "longitude": -84.46102}, "transactions": [], "price": "$$", "location": {"address1": "4750 S Hagadorn Rd", "address2": "Ste 100", "address3": "", "city": "East Lansing", "zip_code": "48823", "country": "US", "state": "MI", "display_address": ["4750 S Hagadorn Rd", "Ste 100", "East Lansing, MI 48823"]}, "phone": "+15173331933", "display_phone": "(517) 333-1933", "distance": 2528.8758405658778}, {"id": "sapporo-ramen-and-noodle-bar-east-lansing", "name": "Sapporo Ramen & Noodle Bar", "image_url": "https://s3-media1.fl.yelpcdn.com/bphoto/9_HBAS2K4RMUeIDotltqhA/o.jpg", "is_closed": false, "url": "https://www.yelp.com/biz/sapporo-ramen-and-noodle-bar-east-lansing?adjust_creative=GJZCdgdhCvkOGUConDnXPg&utm_campaign=yelp_api_v3&utm_medium=api_v3_business_search&utm_source=GJZCdgdhCvkOGUConDnXPg", "review_count": 59, "categories": [{"alias": "ramen", "title": "Ramen"}, {"alias": "noodles", "title": "Noodles"}], "rating": 3.5, "coordinates": {"latitude": 42.7361629136079, "longitude": -84.4809866282531}, "transactions": ["restaurant_reservation", "pickup"], "price": "$$", "location": {"address1": "317 Mac Ave", "address2": "", "address3": "", "city": "East Lansing", "zip_code": "48823", "country": "US", "state": "MI", "display_address": ["317 Mac Ave", "East Lansing, MI 48823"]}, "phone": "+15175804251", "display_phone": "(517) 580-4251", "distance": 550.073914640758}, {"id": "dae-jang-geum-east-lansing", "name": "Dae Jang Geum", "image_url": "https://s3-media1.fl.yelpcdn.com/bphoto/bXKJCVWVji54CrIFY6UocQ/o.jpg", "is_closed": false, "url": "https://www.yelp.com/biz/dae-jang-geum-east-lansing?adjust_creative=GJZCdgdhCvkOGUConDnXPg&utm_campaign=yelp_api_v3&utm_medium=api_v3_business_search&utm_source=GJZCdgdhCvkOGUConDnXPg", "review_count": 34, "categories": [{"alias": "korean", "title": "Korean"}], "rating": 4.0, "coordinates": {"latitude": 42.7317786700564, "longitude": -84.4704907692708}, "transactions": ["pickup"], "price": "$$", "location": {"address1": "1017 E Grand River Ave", "address2": "", "address3": "", "city": "East Lansing", "zip_code": "48823", "country": "US", "state": "MI", "display_address": ["1017 E Grand River Ave", "East Lansing, MI 48823"]}, "phone": "+15173333338", "display_phone": "(517) 333-3338", "distance": 960.6857895286539}, {"id": "red-haven-okemos", "name": "Red Haven", "image_url": "https://s3-media4.fl.yelpcdn.com/bphoto/UFdPy4aRJLFH5Wjel58DXg/o.jpg", "is_closed": false, "url": "https://www.yelp.com/biz/red-haven-okemos?adjust_creative=GJZCdgdhCvkOGUConDnXPg&utm_campaign=yelp_api_v3&utm_medium=api_v3_business_search&utm_source=GJZCdgdhCvkOGUConDnXPg", "review_count": 136, "categories": [{"alias": "tapasmallplates", "title": "Tapas/Small Plates"}, {"alias": "newamerican", "title": "American (New)"}, {"alias": "gastropubs", "title": "Gastropubs"}], "rating": 4.0, "coordinates": {"latitude": 42.7112846, "longitude": -84.4619217}, "transactions": [], "price": "$$$", "location": {"address1": "4480 S Hagadorn Rd", "address2": "", "address3": "", "city": "Okemos", "zip_code": "48823", "country": "US", "state": "MI", "display_address": ["4480 S Hagadorn Rd", "Okemos, MI 48823"]}, "phone": "+15176796309", "display_phone": "(517) 679-6309", "distance": 3348.715365142738}, {"id": "black-cat-bistro-east-lansing", "name": "Black Cat Bistro", "image_url": "https://s3-media1.fl.yelpcdn.com/bphoto/IFNpaYQSblafNghD5mcegQ/o.jpg", "is_closed": false, "url": "https://www.yelp.com/biz/black-cat-bistro-east-lansing?adjust_creative=GJZCdgdhCvkOGUConDnXPg&utm_campaign=yelp_api_v3&utm_medium=api_v3_business_search&utm_source=GJZCdgdhCvkOGUConDnXPg", "review_count": 103, "categories": [{"alias": "newamerican", "title": "American (New)"}, {"alias": "wine_bars", "title": "Wine Bars"}, {"alias": "diners", "title": "Diners"}], "rating": 3.5, "coordinates": {"latitude": 42.736309, "longitude": -84.483261}, "transactions": [], "price": "$$", "location": {"address1": "115 Albert Ave", "address2": "", "address3": "", "city": "East Lansing", "zip_code": "48823", "country": "US", "state": "MI", "display_address": ["115 Albert Ave", "East Lansing, MI 48823"]}, "phone": "+15175803821", "display_phone": "(517) 580-3821", "distance": 691.899658517362}, {"id": "conrads-grill-east-lansing", "name": "Conrad's Grill", "image_url": "https://s3-media1.fl.yelpcdn.com/bphoto/MiOL1_pZ2ztRal4-05JHxg/o.jpg", "is_closed": false, "url": "https://www.yelp.com/biz/conrads-grill-east-lansing?adjust_creative=GJZCdgdhCvkOGUConDnXPg&utm_campaign=yelp_api_v3&utm_medium=api_v3_business_search&utm_source=GJZCdgdhCvkOGUConDnXPg", "review_count": 15, "categories": [{"alias": "bbq", "title": "Barbeque"}, {"alias": "burgers", "title": "Burgers"}, {"alias": "sandwiches", "title": "Sandwiches"}], "rating": 4.5, "coordinates": {"latitude": 42.730819, "longitude": -84.466285}, "transactions": ["delivery"], "price": "$", "location": {"address1": "1219 E Grand River Ave", "address2": null, "address3": null, "city": "East Lansing", "zip_code": "48823", "country": "US", "state": "MI", "display_address": ["1219 E Grand River Ave", "East Lansing, MI 48823"]}, "phone": "+15173337104", "display_phone": "(517) 333-7104", "distance": 1239.837477507776}, {"id": "glazed-and-confused-east-lansing", "name": "Glazed and Confused", "image_url": "https://s3-media1.fl.yelpcdn.com/bphoto/ZaIVzR_QhG8OHDXYJe3vfw/o.jpg", "is_closed": false, "url": "https://www.yelp.com/biz/glazed-and-confused-east-lansing?adjust_creative=GJZCdgdhCvkOGUConDnXPg&utm_campaign=yelp_api_v3&utm_medium=api_v3_business_search&utm_source=GJZCdgdhCvkOGUConDnXPg", "review_count": 23, "categories": [{"alias": "bakeries", "title": "Bakeries"}, {"alias": "breakfast_brunch", "title": "Breakfast & Brunch"}, {"alias": "donuts", "title": "Donuts"}], "rating": 4.5, "coordinates": {"latitude": 42.7605583298988, "longitude": -84.5045455131238}, "transactions": [], "price": "$", "location": {"address1": "1595 W Lake Lansing Rd", "address2": "", "address3": null, "city": "East Lansing", "zip_code": "48823", "country": "US", "state": "MI", "display_address": ["1595 W Lake Lansing Rd", "East Lansing, MI 48823"]}, "phone": "+15172537898", "display_phone": "(517) 253-7898", "distance": 3312.532171104936}, {"id": "mennas-joint-east-lansing-2", "name": "Menna's Joint", "image_url": "https://s3-media2.fl.yelpcdn.com/bphoto/WYvOIaGZ3nUjj-wUMe5oxA/o.jpg", "is_closed": false, "url": "https://www.yelp.com/biz/mennas-joint-east-lansing-2?adjust_creative=GJZCdgdhCvkOGUConDnXPg&utm_campaign=yelp_api_v3&utm_medium=api_v3_business_search&utm_source=GJZCdgdhCvkOGUConDnXPg", "review_count": 38, "categories": [{"alias": "tradamerican", "title": "American (Traditional)"}], "rating": 4.0, "coordinates": {"latitude": 42.7362150755185, "longitude": -84.4831766448646}, "transactions": ["delivery", "pickup"], "price": "$", "location": {"address1": "115 Albert Ave", "address2": null, "address3": null, "city": "East Lansing", "zip_code": "48823", "country": "US", "state": "MI", "display_address": ["115 Albert Ave", "East Lansing, MI 48823"]}, "phone": "+15173513827", "display_phone": "(517) 351-3827", "distance": 691.3065106718559}, {"id": "altus-ethiopian-cuisine-east-lansing", "name": "Altu's Ethiopian Cuisine", "image_url": "https://s3-media2.fl.yelpcdn.com/bphoto/_k0RKMImmei_tO47x0nbQw/o.jpg", "is_closed": false, "url": "https://www.yelp.com/biz/altus-ethiopian-cuisine-east-lansing?adjust_creative=GJZCdgdhCvkOGUConDnXPg&utm_campaign=yelp_api_v3&utm_medium=api_v3_business_search&utm_source=GJZCdgdhCvkOGUConDnXPg", "review_count": 108, "categories": [{"alias": "ethiopian", "title": "Ethiopian"}, {"alias": "juicebars", "title": "Juice Bars & Smoothies"}], "rating": 4.0, "coordinates": {"latitude": 42.734006395485, "longitude": -84.500909877889}, "transactions": ["delivery"], "price": "$$", "location": {"address1": "1312 Michigan Ave", "address2": "", "address3": "", "city": "East Lansing", "zip_code": "48823", "country": "US", "state": "MI", "display_address": ["1312 Michigan Ave", "East Lansing, MI 48823"]}, "phone": "+15173336295", "display_phone": "(517) 333-6295", "distance": 2127.0520894206516}, {"id": "meat-southern-bbq-and-carnivore-cuisine-lansing", "name": "Meat Southern BBQ & Carnivore Cuisine", "image_url": "https://s3-media1.fl.yelpcdn.com/bphoto/Rup4DJQivPqMn-EAeHnTDA/o.jpg", "is_closed": false, "url": "https://www.yelp.com/biz/meat-southern-bbq-and-carnivore-cuisine-lansing?adjust_creative=GJZCdgdhCvkOGUConDnXPg&utm_campaign=yelp_api_v3&utm_medium=api_v3_business_search&utm_source=GJZCdgdhCvkOGUConDnXPg", "review_count": 328, "categories": [{"alias": "bbq", "title": "Barbeque"}, {"alias": "meats", "title": "Meat Shops"}], "rating": 4.0, "coordinates": {"latitude": 42.7481511, "longitude": -84.5494017}, "transactions": [], "price": "$$", "location": {"address1": "1224 E Turner St", "address2": "", "address3": "", "city": "Lansing", "zip_code": "48906", "country": "US", "state": "MI", "display_address": ["1224 E Turner St", "Lansing, MI 48906"]}, "phone": "+15175804400", "display_phone": "(517) 580-4400", "distance": 6071.80563206188}, {"id": "naing-myanmar-family-restaurant-lansing", "name": "Naing Myanmar Family Restaurant", "image_url": "https://s3-media1.fl.yelpcdn.com/bphoto/TyHwga5c5LnQlX3zu1X1-g/o.jpg", "is_closed": false, "url": "https://www.yelp.com/biz/naing-myanmar-family-restaurant-lansing?adjust_creative=GJZCdgdhCvkOGUConDnXPg&utm_campaign=yelp_api_v3&utm_medium=api_v3_business_search&utm_source=GJZCdgdhCvkOGUConDnXPg", "review_count": 174, "categories": [{"alias": "burmese", "title": "Burmese"}, {"alias": "thai", "title": "Thai"}, {"alias": "malaysian", "title": "Malaysian"}], "rating": 4.5, "coordinates": {"latitude": 42.698443, "longitude": -84.548959}, "transactions": [], "price": "$", "location": {"address1": "3308 S Cedar St", "address2": "Ste 3", "address3": "", "city": "Lansing", "zip_code": "48910", "country": "US", "state": "MI", "display_address": ["3308 S Cedar St", "Ste 3", "Lansing, MI 48910"]}, "phone": "+18576158393", "display_phone": "(857) 615-8393", "distance": 7507.6217015120155}, {"id": "maru-sushi-and-grill-east-lansing", "name": "Maru Sushi & Grill", "image_url": "https://s3-media2.fl.yelpcdn.com/bphoto/p_BeSnvWOrtYXw49fBwWrg/o.jpg", "is_closed": false, "url": "https://www.yelp.com/biz/maru-sushi-and-grill-east-lansing?adjust_creative=GJZCdgdhCvkOGUConDnXPg&utm_campaign=yelp_api_v3&utm_medium=api_v3_business_search&utm_source=GJZCdgdhCvkOGUConDnXPg", "review_count": 129, "categories": [{"alias": "sushi", "title": "Sushi Bars"}], "rating": 4.0, "coordinates": {"latitude": 42.761406, "longitude": -84.504584}, "transactions": ["restaurant_reservation"], "price": "$$", "location": {"address1": "1500 W Lake Lansing", "address2": "", "address3": "", "city": "East Lansing", "zip_code": "48823", "country": "US", "state": "MI", "display_address": ["1500 W Lake Lansing", "East Lansing, MI 48823"]}, "phone": "+15173371500", "display_phone": "(517) 337-1500", "distance": 3382.176654757892}, {"id": "beggars-banquet-east-lansing", "name": "Beggar's Banquet", "image_url": "https://s3-media1.fl.yelpcdn.com/bphoto/_keC_OXK7hnKjiGqH0N6Iw/o.jpg", "is_closed": false, "url": "https://www.yelp.com/biz/beggars-banquet-east-lansing?adjust_creative=GJZCdgdhCvkOGUConDnXPg&utm_campaign=yelp_api_v3&utm_medium=api_v3_business_search&utm_source=GJZCdgdhCvkOGUConDnXPg", "review_count": 118, "categories": [{"alias": "wine_bars", "title": "Wine Bars"}, {"alias": "newamerican", "title": "American (New)"}], "rating": 3.5, "coordinates": {"latitude": 42.73578, "longitude": -84.48347}, "transactions": [], "price": "$$", "location": {"address1": "218 Abbot Rd", "address2": "", "address3": "", "city": "East Lansing", "zip_code": "48823", "country": "US", "state": "MI", "display_address": ["218 Abbot Rd", "East Lansing, MI 48823"]}, "phone": "+15173514540", "display_phone": "(517) 351-4540", "distance": 743.2815113359119}, {"id": "swagath-indian-cuisine-east-lansing", "name": "Swagath Indian Cuisine", "image_url": "https://s3-media1.fl.yelpcdn.com/bphoto/tk7F3iF2yMAkuMIafD6vIQ/o.jpg", "is_closed": false, "url": "https://www.yelp.com/biz/swagath-indian-cuisine-east-lansing?adjust_creative=GJZCdgdhCvkOGUConDnXPg&utm_campaign=yelp_api_v3&utm_medium=api_v3_business_search&utm_source=GJZCdgdhCvkOGUConDnXPg", "review_count": 96, "categories": [{"alias": "indpak", "title": "Indian"}], "rating": 4.0, "coordinates": {"latitude": 42.7199949, "longitude": -84.4975304}, "transactions": ["delivery"], "price": "$$", "location": {"address1": "1060 Trowbridge Rd", "address2": "Ste 3", "address3": "", "city": "East Lansing", "zip_code": "48823", "country": "US", "state": "MI", "display_address": ["1060 Trowbridge Rd", "Ste 3", "East Lansing, MI 48823"]}, "phone": "+15173336536", "display_phone": "(517) 333-6536", "distance": 2735.4161384102117}, {"id": "ruckus-ramen-lansing", "name": "Ruckus Ramen", "image_url": "https://s3-media4.fl.yelpcdn.com/bphoto/OoDjwAPjtvADapNBfCoBqw/o.jpg", "is_closed": false, "url": "https://www.yelp.com/biz/ruckus-ramen-lansing?adjust_creative=GJZCdgdhCvkOGUConDnXPg&utm_campaign=yelp_api_v3&utm_medium=api_v3_business_search&utm_source=GJZCdgdhCvkOGUConDnXPg", "review_count": 15, "categories": [{"alias": "ramen", "title": "Ramen"}], "rating": 4.0, "coordinates": {"latitude": 42.73389, "longitude": -84.52141}, "transactions": [], "price": "$$", "location": {"address1": "2021 E Michigan Ave", "address2": null, "address3": "Avenue Cafe", "city": "Lansing", "zip_code": "48912", "country": "US", "state": "MI", "display_address": ["2021 E Michigan Ave", "Avenue Cafe", "Lansing, MI 48912"]}, "phone": "+15179997549", "display_phone": "(517) 999-7549", "distance": 3764.5009665403177}, {"id": "bul-go-gi-east-lansing-10", "name": "Bul Go Gi", "image_url": "https://s3-media3.fl.yelpcdn.com/bphoto/lXoUe498BYUGw9w7PfUfgg/o.jpg", "is_closed": false, "url": "https://www.yelp.com/biz/bul-go-gi-east-lansing-10?adjust_creative=GJZCdgdhCvkOGUConDnXPg&utm_campaign=yelp_api_v3&utm_medium=api_v3_business_search&utm_source=GJZCdgdhCvkOGUConDnXPg", "review_count": 37, "categories": [{"alias": "korean", "title": "Korean"}, {"alias": "bbq", "title": "Barbeque"}], "rating": 3.5, "coordinates": {"latitude": 42.7351799, "longitude": -84.4802514}, "transactions": ["delivery", "pickup"], "price": "$$", "location": {"address1": "340 Albert Ave", "address2": "", "address3": "", "city": "East Lansing", "zip_code": "48823", "country": "US", "state": "MI", "display_address": ["340 Albert Ave", "East Lansing, MI 48823"]}, "phone": "+15179936817", "display_phone": "(517) 993-6817", "distance": 590.073675225696}, {"id": "saddleback-bbq-lansing", "name": "Saddleback BBQ", "image_url": "https://s3-media2.fl.yelpcdn.com/bphoto/7rKqOYqKGwLRNFVtWke5Qg/o.jpg", "is_closed": false, "url": "https://www.yelp.com/biz/saddleback-bbq-lansing?adjust_creative=GJZCdgdhCvkOGUConDnXPg&utm_campaign=yelp_api_v3&utm_medium=api_v3_business_search&utm_source=GJZCdgdhCvkOGUConDnXPg", "review_count": 106, "categories": [{"alias": "newamerican", "title": "American (New)"}, {"alias": "bbq", "title": "Barbeque"}], "rating": 4.5, "coordinates": {"latitude": 42.72038, "longitude": -84.55202}, "transactions": ["restaurant_reservation"], "price": "$$", "location": {"address1": "1147 S Washington Ave", "address2": "", "address3": "", "city": "Lansing", "zip_code": "48910", "country": "US", "state": "MI", "display_address": ["1147 S Washington Ave", "Lansing, MI 48910"]}, "phone": "+15172537556", "display_phone": "(517) 253-7556", "distance": 6568.066632443985}, {"id": "udon-sushi-restaurant-east-lansing", "name": "Udon Sushi Restaurant", "image_url": "https://s3-media3.fl.yelpcdn.com/bphoto/-1Qm58tk7lKFmyXflc2AiQ/o.jpg", "is_closed": false, "url": "https://www.yelp.com/biz/udon-sushi-restaurant-east-lansing?adjust_creative=GJZCdgdhCvkOGUConDnXPg&utm_campaign=yelp_api_v3&utm_medium=api_v3_business_search&utm_source=GJZCdgdhCvkOGUConDnXPg", "review_count": 66, "categories": [{"alias": "sushi", "title": "Sushi Bars"}, {"alias": "japanese", "title": "Japanese"}, {"alias": "asianfusion", "title": "Asian Fusion"}], "rating": 3.5, "coordinates": {"latitude": 42.73458, "longitude": -84.49319}, "transactions": [], "price": "$", "location": {"address1": "134 N Harrison Rd", "address2": "Ste A", "address3": "", "city": "East Lansing", "zip_code": "48823", "country": "US", "state": "MI", "display_address": ["134 N Harrison Rd", "Ste A", "East Lansing, MI 48823"]}, "phone": "+15173325995", "display_phone": "(517) 332-5995", "distance": 1510.441410352618}, {"id": "the-cosmos-wood-fired-pizza-lansing", "name": "The Cosmos Wood-Fired Pizza", "image_url": "https://s3-media3.fl.yelpcdn.com/bphoto/52ZMvPn8xwtupjWjUyUWaw/o.jpg", "is_closed": false, "url": "https://www.yelp.com/biz/the-cosmos-wood-fired-pizza-lansing?adjust_creative=GJZCdgdhCvkOGUConDnXPg&utm_campaign=yelp_api_v3&utm_medium=api_v3_business_search&utm_source=GJZCdgdhCvkOGUConDnXPg", "review_count": 155, "categories": [{"alias": "pizza", "title": "Pizza"}], "rating": 4.5, "coordinates": {"latitude": 42.7477275767941, "longitude": -84.5441416441803}, "transactions": [], "price": "$$", "location": {"address1": "611 E Grand River Ave", "address2": "", "address3": "", "city": "Lansing", "zip_code": "48906", "country": "US", "state": "MI", "display_address": ["611 E Grand River Ave", "Lansing, MI 48906"]}, "phone": "+15178973563", "display_phone": "(517) 897-3563", "distance": 5645.473780059016}, {"id": "bbqland-\u706b\u4e32\u71d2-east-lansing", "name": "BBQLAND \u706b\u4e32\u71d2", "image_url": "https://s3-media3.fl.yelpcdn.com/bphoto/PzVIM6gqE-2G4hCikUik3Q/o.jpg", "is_closed": false, "url": "https://www.yelp.com/biz/bbqland-%E7%81%AB%E4%B8%B2%E7%87%92-east-lansing?adjust_creative=GJZCdgdhCvkOGUConDnXPg&utm_campaign=yelp_api_v3&utm_medium=api_v3_business_search&utm_source=GJZCdgdhCvkOGUConDnXPg", "review_count": 14, "categories": [{"alias": "chinese", "title": "Chinese"}], "rating": 3.5, "coordinates": {"latitude": 42.7203, "longitude": -84.46032}, "transactions": [], "price": "$", "location": {"address1": "4790 S Hagadorn Rd", "address2": "", "address3": "", "city": "East Lansing", "zip_code": "48823", "country": "US", "state": "MI", "display_address": ["4790 S Hagadorn Rd", "East Lansing, MI 48823"]}, "phone": "+15172035853", "display_phone": "(517) 203-5853", "distance": 2507.4667432312817}, {"id": "omi-sushi-east-lansing", "name": "Omi Sushi", "image_url": "https://s3-media4.fl.yelpcdn.com/bphoto/_2yyWk9nRBOy5tIqVFjXUw/o.jpg", "is_closed": false, "url": "https://www.yelp.com/biz/omi-sushi-east-lansing?adjust_creative=GJZCdgdhCvkOGUConDnXPg&utm_campaign=yelp_api_v3&utm_medium=api_v3_business_search&utm_source=GJZCdgdhCvkOGUConDnXPg", "review_count": 92, "categories": [{"alias": "sushi", "title": "Sushi Bars"}, {"alias": "japanese", "title": "Japanese"}], "rating": 4.0, "coordinates": {"latitude": 42.7350509925402, "longitude": -84.481086730957}, "transactions": [], "price": "$$", "location": {"address1": "210 Mac Ave", "address2": "", "address3": "", "city": "East Lansing", "zip_code": "48823", "country": "US", "state": "MI", "display_address": ["210 Mac Ave", "East Lansing, MI 48823"]}, "phone": "+15173372222", "display_phone": "(517) 337-2222", "distance": 643.966666219398}, {"id": "wings-over-east-lansing-east-lansing", "name": "Wings Over East Lansing", "image_url": "https://s3-media1.fl.yelpcdn.com/bphoto/WjhjVgbZefPcUMuDWF8A3A/o.jpg", "is_closed": false, "url": "https://www.yelp.com/biz/wings-over-east-lansing-east-lansing?adjust_creative=GJZCdgdhCvkOGUConDnXPg&utm_campaign=yelp_api_v3&utm_medium=api_v3_business_search&utm_source=GJZCdgdhCvkOGUConDnXPg", "review_count": 46, "categories": [{"alias": "chicken_wings", "title": "Chicken Wings"}], "rating": 3.5, "coordinates": {"latitude": 42.7304, "longitude": -84.462999}, "transactions": ["delivery", "pickup"], "price": "$$", "location": {"address1": "1391 E Grand River Ave", "address2": "", "address3": "", "city": "East Lansing", "zip_code": "48823", "country": "US", "state": "MI", "display_address": ["1391 E Grand River Ave", "East Lansing, MI 48823"]}, "phone": "+15173325555", "display_phone": "(517) 332-5555", "distance": 1458.152495207776}, {"id": "harrison-roadhouse-east-lansing", "name": "Harrison Roadhouse", "image_url": "https://s3-media4.fl.yelpcdn.com/bphoto/K9Oa6vJ7bIHJe3vHfgzq-Q/o.jpg", "is_closed": false, "url": "https://www.yelp.com/biz/harrison-roadhouse-east-lansing?adjust_creative=GJZCdgdhCvkOGUConDnXPg&utm_campaign=yelp_api_v3&utm_medium=api_v3_business_search&utm_source=GJZCdgdhCvkOGUConDnXPg", "review_count": 62, "categories": [{"alias": "tradamerican", "title": "American (Traditional)"}, {"alias": "sportsbars", "title": "Sports Bars"}, {"alias": "cocktailbars", "title": "Cocktail Bars"}], "rating": 3.5, "coordinates": {"latitude": 42.734094, "longitude": -84.493028}, "transactions": ["delivery"], "price": "$$", "location": {"address1": "720 Michigan Ave", "address2": "", "address3": "", "city": "East Lansing", "zip_code": "48823", "country": "US", "state": "MI", "display_address": ["720 Michigan Ave", "East Lansing, MI 48823"]}, "phone": "+15173370200", "display_phone": "(517) 337-0200", "distance": 1516.9922954492938}, {"id": "charlie-kangs-east-lansing", "name": "Charlie Kang's", "image_url": "https://s3-media4.fl.yelpcdn.com/bphoto/NlIZScm43OEiEMES396giw/o.jpg", "is_closed": false, "url": "https://www.yelp.com/biz/charlie-kangs-east-lansing?adjust_creative=GJZCdgdhCvkOGUConDnXPg&utm_campaign=yelp_api_v3&utm_medium=api_v3_business_search&utm_source=GJZCdgdhCvkOGUConDnXPg", "review_count": 72, "categories": [{"alias": "chinese", "title": "Chinese"}, {"alias": "korean", "title": "Korean"}], "rating": 4.0, "coordinates": {"latitude": 42.7352920102027, "longitude": -84.48273025395}, "transactions": ["delivery", "pickup"], "price": "$$", "location": {"address1": "127 E Grand Riv", "address2": "", "address3": "", "city": "East Lansing", "zip_code": "48823", "country": "US", "state": "MI", "display_address": ["127 E Grand Riv", "East Lansing, MI 48823"]}, "phone": "+15173324696", "display_phone": "(517) 332-4696", "distance": 721.246069977762}, {"id": "copper-east-lansing", "name": "Copper", "image_url": "https://s3-media1.fl.yelpcdn.com/bphoto/XlztGZQn5sLu6RrtkCmSVg/o.jpg", "is_closed": false, "url": "https://www.yelp.com/biz/copper-east-lansing?adjust_creative=GJZCdgdhCvkOGUConDnXPg&utm_campaign=yelp_api_v3&utm_medium=api_v3_business_search&utm_source=GJZCdgdhCvkOGUConDnXPg", "review_count": 24, "categories": [{"alias": "sandwiches", "title": "Sandwiches"}, {"alias": "newamerican", "title": "American (New)"}], "rating": 4.0, "coordinates": {"latitude": 42.7627411, "longitude": -84.4537964}, "transactions": [], "price": "$$", "location": {"address1": "2874 Lake Lansing Rd", "address2": "", "address3": "Walnut Hills", "city": "East Lansing", "zip_code": "48823", "country": "US", "state": "MI", "display_address": ["2874 Lake Lansing Rd", "Walnut Hills", "East Lansing, MI 48823"]}, "phone": "+15173321080", "display_phone": "(517) 332-1080", "distance": 2919.224606763352}, {"id": "sushi-ya-east-lansing", "name": "Sushi Ya", "image_url": "https://s3-media2.fl.yelpcdn.com/bphoto/iF5S4a8YCJgb2O1T0PzsZw/o.jpg", "is_closed": false, "url": "https://www.yelp.com/biz/sushi-ya-east-lansing?adjust_creative=GJZCdgdhCvkOGUConDnXPg&utm_campaign=yelp_api_v3&utm_medium=api_v3_business_search&utm_source=GJZCdgdhCvkOGUConDnXPg", "review_count": 97, "categories": [{"alias": "sushi", "title": "Sushi Bars"}, {"alias": "japanese", "title": "Japanese"}], "rating": 4.0, "coordinates": {"latitude": 42.7337014, "longitude": -84.4775466}, "transactions": ["delivery"], "price": "$$", "location": {"address1": "529 E Grand River Ave", "address2": "", "address3": "", "city": "East Lansing", "zip_code": "48823", "country": "US", "state": "MI", "display_address": ["529 E Grand River Ave", "East Lansing, MI 48823"]}, "phone": "+15173330804", "display_phone": "(517) 333-0804", "distance": 631.277576668236}, {"id": "woodys-oasis-east-lansing-2", "name": "Woody's Oasis", "image_url": "https://s3-media2.fl.yelpcdn.com/bphoto/j0lo2dbp-gwXfBhx78dB8g/o.jpg", "is_closed": false, "url": "https://www.yelp.com/biz/woodys-oasis-east-lansing-2?adjust_creative=GJZCdgdhCvkOGUConDnXPg&utm_campaign=yelp_api_v3&utm_medium=api_v3_business_search&utm_source=GJZCdgdhCvkOGUConDnXPg", "review_count": 50, "categories": [{"alias": "mediterranean", "title": "Mediterranean"}, {"alias": "sandwiches", "title": "Sandwiches"}], "rating": 4.0, "coordinates": {"latitude": 42.7201346404926, "longitude": -84.4973887915945}, "transactions": ["delivery"], "price": "$", "location": {"address1": "1050 Trowbridge Rd", "address2": "", "address3": null, "city": "East Lansing", "zip_code": "48823", "country": "US", "state": "MI", "display_address": ["1050 Trowbridge Rd", "East Lansing, MI 48823"]}, "phone": "+15173512280", "display_phone": "(517) 351-2280", "distance": 2770.668724511918}, {"id": "capital-vine-lansing", "name": "Capital Vine", "image_url": "https://s3-media2.fl.yelpcdn.com/bphoto/CESyYg0_omiUifWU9PvfIQ/o.jpg", "is_closed": false, "url": "https://www.yelp.com/biz/capital-vine-lansing?adjust_creative=GJZCdgdhCvkOGUConDnXPg&utm_campaign=yelp_api_v3&utm_medium=api_v3_business_search&utm_source=GJZCdgdhCvkOGUConDnXPg", "review_count": 17, "categories": [{"alias": "wine_bars", "title": "Wine Bars"}, {"alias": "newamerican", "title": "American (New)"}], "rating": 4.0, "coordinates": {"latitude": 42.7670592, "longitude": -84.5172304}, "transactions": [], "price": "$$", "location": {"address1": "2320 Showtime Dr", "address2": "", "address3": "", "city": "Lansing", "zip_code": "48912", "country": "US", "state": "MI", "display_address": ["2320 Showtime Dr", "Lansing, MI 48912"]}, "phone": "+15173778463", "display_phone": "(517) 377-8463", "distance": 4560.865049985584}, {"id": "the-creole-lansing", "name": "The Creole", "image_url": "https://s3-media2.fl.yelpcdn.com/bphoto/Xk325lK1dttTY9MPkLgmwA/o.jpg", "is_closed": false, "url": "https://www.yelp.com/biz/the-creole-lansing?adjust_creative=GJZCdgdhCvkOGUConDnXPg&utm_campaign=yelp_api_v3&utm_medium=api_v3_business_search&utm_source=GJZCdgdhCvkOGUConDnXPg", "review_count": 120, "categories": [{"alias": "cajun", "title": "Cajun/Creole"}, {"alias": "wine_bars", "title": "Wine Bars"}, {"alias": "breakfast_brunch", "title": "Breakfast & Brunch"}], "rating": 4.0, "coordinates": {"latitude": 42.747993, "longitude": -84.5494029}, "transactions": ["restaurant_reservation"], "price": "$$", "location": {"address1": "1218 Turner St", "address2": null, "address3": "", "city": "Lansing", "zip_code": "48906", "country": "US", "state": "MI", "display_address": ["1218 Turner St", "Lansing, MI 48906"]}, "phone": "+15173711361", "display_phone": "(517) 371-1361", "distance": 6074.232491354308}, {"id": "taste-of-thai-east-lansing", "name": "Taste of Thai", "image_url": "https://s3-media1.fl.yelpcdn.com/bphoto/hnhUAmwwxrRgatMmmvFFmA/o.jpg", "is_closed": false, "url": "https://www.yelp.com/biz/taste-of-thai-east-lansing?adjust_creative=GJZCdgdhCvkOGUConDnXPg&utm_campaign=yelp_api_v3&utm_medium=api_v3_business_search&utm_source=GJZCdgdhCvkOGUConDnXPg", "review_count": 103, "categories": [{"alias": "thai", "title": "Thai"}], "rating": 3.5, "coordinates": {"latitude": 42.7279944, "longitude": -84.455557}, "transactions": ["delivery"], "price": "$", "location": {"address1": "2838 E Grand River Ave", "address2": "", "address3": "", "city": "East Lansing", "zip_code": "48823", "country": "US", "state": "MI", "display_address": ["2838 E Grand River Ave", "East Lansing, MI 48823"]}, "phone": "+15173240225", "display_phone": "(517) 324-0225", "distance": 2095.080631987372}, {"id": "korea-house-east-lansing", "name": "Korea House", "image_url": "https://s3-media1.fl.yelpcdn.com/bphoto/BClvfKjmrvd1Xr9JvRp_7w/o.jpg", "is_closed": false, "url": "https://www.yelp.com/biz/korea-house-east-lansing?adjust_creative=GJZCdgdhCvkOGUConDnXPg&utm_campaign=yelp_api_v3&utm_medium=api_v3_business_search&utm_source=GJZCdgdhCvkOGUConDnXPg", "review_count": 65, "categories": [{"alias": "korean", "title": "Korean"}, {"alias": "japanese", "title": "Japanese"}], "rating": 3.5, "coordinates": {"latitude": 42.7208357773238, "longitude": -84.496027545428}, "transactions": [], "price": "$$", "location": {"address1": "978 Trowbridge Rd", "address2": "", "address3": "", "city": "East Lansing", "zip_code": "48823", "country": "US", "state": "MI", "display_address": ["978 Trowbridge Rd", "East Lansing, MI 48823"]}, "phone": "+15173320608", "display_phone": "(517) 332-0608", "distance": 2640.2124512981077}, {"id": "spartan-hall-of-fame-cafe-east-lansing-5", "name": "Spartan Hall of Fame Cafe", "image_url": "https://s3-media2.fl.yelpcdn.com/bphoto/FDVNXSkc0sVQj8DzeUzWeQ/o.jpg", "is_closed": false, "url": "https://www.yelp.com/biz/spartan-hall-of-fame-cafe-east-lansing-5?adjust_creative=GJZCdgdhCvkOGUConDnXPg&utm_campaign=yelp_api_v3&utm_medium=api_v3_business_search&utm_source=GJZCdgdhCvkOGUConDnXPg", "review_count": 47, "categories": [{"alias": "tradamerican", "title": "American (Traditional)"}, {"alias": "sportsbars", "title": "Sports Bars"}, {"alias": "bbq", "title": "Barbeque"}], "rating": 3.0, "coordinates": {"latitude": 42.7606156, "longitude": -84.5053952}, "transactions": ["pickup"], "price": "$$", "location": {"address1": "1601 W Lake Lansing Rd", "address2": "", "address3": "", "city": "East Lansing", "zip_code": "48823", "country": "US", "state": "MI", "display_address": ["1601 W Lake Lansing Rd", "East Lansing, MI 48823"]}, "phone": "+15173374680", "display_phone": "(517) 337-4680", "distance": 3366.269136585638}, {"id": "sultans-place-east-lansing", "name": "Sultans Place", "image_url": "https://s3-media2.fl.yelpcdn.com/bphoto/q47_R18RlKtc9uXIPes49w/o.jpg", "is_closed": false, "url": "https://www.yelp.com/biz/sultans-place-east-lansing?adjust_creative=GJZCdgdhCvkOGUConDnXPg&utm_campaign=yelp_api_v3&utm_medium=api_v3_business_search&utm_source=GJZCdgdhCvkOGUConDnXPg", "review_count": 87, "categories": [{"alias": "mediterranean", "title": "Mediterranean"}, {"alias": "mideastern", "title": "Middle Eastern"}, {"alias": "juicebars", "title": "Juice Bars & Smoothies"}], "rating": 3.5, "coordinates": {"latitude": 42.7193686947406, "longitude": -84.4594497537889}, "transactions": [], "price": "$$", "location": {"address1": "4790 S Hagadorn Rd", "address2": "Ste 164", "address3": "", "city": "East Lansing", "zip_code": "48823", "country": "US", "state": "MI", "display_address": ["4790 S Hagadorn Rd", "Ste 164", "East Lansing, MI 48823"]}, "phone": "+15173334444", "display_phone": "(517) 333-4444", "distance": 2606.30642845972}, {"id": "pizza-house-east-lansing-2", "name": "Pizza House", "image_url": "https://s3-media3.fl.yelpcdn.com/bphoto/Mdu_HSE4axrLSpybmWFbNA/o.jpg", "is_closed": false, "url": "https://www.yelp.com/biz/pizza-house-east-lansing-2?adjust_creative=GJZCdgdhCvkOGUConDnXPg&utm_campaign=yelp_api_v3&utm_medium=api_v3_business_search&utm_source=GJZCdgdhCvkOGUConDnXPg", "review_count": 137, "categories": [{"alias": "pizza", "title": "Pizza"}, {"alias": "sportsbars", "title": "Sports Bars"}, {"alias": "tradamerican", "title": "American (Traditional)"}], "rating": 3.5, "coordinates": {"latitude": 42.7205518184179, "longitude": -84.4606006422064}, "transactions": ["delivery", "pickup"], "price": "$$", "location": {"address1": "4790 S Hagadorn Rd", "address2": "Stes 114-116", "address3": "", "city": "East Lansing", "zip_code": "48823", "country": "US", "state": "MI", "display_address": ["4790 S Hagadorn Rd", "Stes 114-116", "East Lansing, MI 48823"]}, "phone": "+15173360033", "display_phone": "(517) 336-0033", "distance": 2445.1253413396316}, {"id": "henrys-place-okemos", "name": "Henry's Place", "image_url": "https://s3-media4.fl.yelpcdn.com/bphoto/qfzygiBBdPlWTvGS4fZ08Q/o.jpg", "is_closed": false, "url": "https://www.yelp.com/biz/henrys-place-okemos?adjust_creative=GJZCdgdhCvkOGUConDnXPg&utm_campaign=yelp_api_v3&utm_medium=api_v3_business_search&utm_source=GJZCdgdhCvkOGUConDnXPg", "review_count": 25, "categories": [{"alias": "burgers", "title": "Burgers"}, {"alias": "sandwiches", "title": "Sandwiches"}, {"alias": "pubs", "title": "Pubs"}], "rating": 4.0, "coordinates": {"latitude": 42.7252498018569, "longitude": -84.414079785347}, "transactions": [], "price": "$$", "location": {"address1": "4926 Marsh Rd", "address2": null, "address3": "", "city": "Okemos", "zip_code": "48864", "country": "US", "state": "MI", "display_address": ["4926 Marsh Rd", "Okemos, MI 48864"]}, "phone": "+15175803075", "display_phone": "(517) 580-3075", "distance": 5292.794553446108}, {"id": "georgios-pizza-east-lansing", "name": "Georgio's Pizza", "image_url": "https://s3-media4.fl.yelpcdn.com/bphoto/LfBbciYMQuR6oMwMr1UY1g/o.jpg", "is_closed": false, "url": "https://www.yelp.com/biz/georgios-pizza-east-lansing?adjust_creative=GJZCdgdhCvkOGUConDnXPg&utm_campaign=yelp_api_v3&utm_medium=api_v3_business_search&utm_source=GJZCdgdhCvkOGUConDnXPg", "review_count": 71, "categories": [{"alias": "pizza", "title": "Pizza"}], "rating": 4.0, "coordinates": {"latitude": 42.734748530484, "longitude": -84.479510902878}, "transactions": ["delivery"], "price": "$", "location": {"address1": "120 Charles St", "address2": "", "address3": "", "city": "East Lansing", "zip_code": "48823", "country": "US", "state": "MI", "display_address": ["120 Charles St", "East Lansing, MI 48823"]}, "phone": "+15173339990", "display_phone": "(517) 333-9990", "distance": 597.438246810656}, {"id": "hongs-cafe-east-lansing", "name": "Hong's Cafe", "image_url": "https://s3-media1.fl.yelpcdn.com/bphoto/YOE9buH6UsXSgjIjL80gpA/o.jpg", "is_closed": false, "url": "https://www.yelp.com/biz/hongs-cafe-east-lansing?adjust_creative=GJZCdgdhCvkOGUConDnXPg&utm_campaign=yelp_api_v3&utm_medium=api_v3_business_search&utm_source=GJZCdgdhCvkOGUConDnXPg", "review_count": 13, "categories": [{"alias": "bubbletea", "title": "Bubble Tea"}, {"alias": "chinese", "title": "Chinese"}], "rating": 4.0, "coordinates": {"latitude": 42.757143, "longitude": -84.4640809}, "transactions": [], "price": "$$", "location": {"address1": "3030 E Lake Lansing Rd", "address2": "", "address3": "", "city": "East Lansing", "zip_code": "48823", "country": "US", "state": "MI", "display_address": ["3030 E Lake Lansing Rd", "East Lansing, MI 48823"]}, "phone": "+15173326688", "display_phone": "(517) 332-6688", "distance": 2194.006339979358}, {"id": "el-azteco-east-east-lansing", "name": "El Azteco East", "image_url": "https://s3-media2.fl.yelpcdn.com/bphoto/BgzXCy7SzR11Anc5lGAFtw/o.jpg", "is_closed": false, "url": "https://www.yelp.com/biz/el-azteco-east-east-lansing?adjust_creative=GJZCdgdhCvkOGUConDnXPg&utm_campaign=yelp_api_v3&utm_medium=api_v3_business_search&utm_source=GJZCdgdhCvkOGUConDnXPg", "review_count": 173, "categories": [{"alias": "mexican", "title": "Mexican"}], "rating": 2.5, "coordinates": {"latitude": 42.735891, "longitude": -84.481265}, "transactions": [], "price": "$", "location": {"address1": "225 Ann St", "address2": "", "address3": "", "city": "East Lansing", "zip_code": "48823", "country": "US", "state": "MI", "display_address": ["225 Ann St", "East Lansing, MI 48823"]}, "phone": "+15173519111", "display_phone": "(517) 351-9111", "distance": 587.17680303638}, {"id": "soup-spoon-cafe-lansing", "name": "Soup Spoon Cafe", "image_url": "https://s3-media3.fl.yelpcdn.com/bphoto/LA4PYxMZKC91NOENc13udA/o.jpg", "is_closed": false, "url": "https://www.yelp.com/biz/soup-spoon-cafe-lansing?adjust_creative=GJZCdgdhCvkOGUConDnXPg&utm_campaign=yelp_api_v3&utm_medium=api_v3_business_search&utm_source=GJZCdgdhCvkOGUConDnXPg", "review_count": 407, "categories": [{"alias": "breakfast_brunch", "title": "Breakfast & Brunch"}, {"alias": "sandwiches", "title": "Sandwiches"}], "rating": 4.0, "coordinates": {"latitude": 42.7337149, "longitude": -84.530437}, "transactions": ["restaurant_reservation"], "price": "$$", "location": {"address1": "1419 E Michigan Ave", "address2": "", "address3": "", "city": "Lansing", "zip_code": "48912", "country": "US", "state": "MI", "display_address": ["1419 E Michigan Ave", "Lansing, MI 48912"]}, "phone": "+15173162377", "display_phone": "(517) 316-2377", "distance": 4489.95362355647}, {"id": "iorios-gelato-and-caff\u00e9-east-lansing", "name": "Iorio's Gelato & Caff\u00e9", "image_url": "https://s3-media4.fl.yelpcdn.com/bphoto/igw6LJsC16QA10x0WGaGdQ/o.jpg", "is_closed": false, "url": "https://www.yelp.com/biz/iorios-gelato-and-caff%C3%A9-east-lansing?adjust_creative=GJZCdgdhCvkOGUConDnXPg&utm_campaign=yelp_api_v3&utm_medium=api_v3_business_search&utm_source=GJZCdgdhCvkOGUConDnXPg", "review_count": 28, "categories": [{"alias": "gelato", "title": "Gelato"}, {"alias": "icecream", "title": "Ice Cream & Frozen Yogurt"}, {"alias": "cafes", "title": "Cafes"}], "rating": 5.0, "coordinates": {"latitude": 42.7199949, "longitude": -84.4970031}, "transactions": [], "price": "$", "location": {"address1": "1034 Trowbridge Rd", "address2": null, "address3": "", "city": "East Lansing", "zip_code": "48823", "country": "US", "state": "MI", "display_address": ["1034 Trowbridge Rd", "East Lansing, MI 48823"]}, "phone": "+15172446040", "display_phone": "(517) 244-6040", "distance": 2681.690079748558}, {"id": "mi-sushi-and-noodles-east-lansing-2", "name": "Mi Sushi & Noodles", "image_url": "https://s3-media2.fl.yelpcdn.com/bphoto/3ICJfOeGP_GpJsDatan97Q/o.jpg", "is_closed": false, "url": "https://www.yelp.com/biz/mi-sushi-and-noodles-east-lansing-2?adjust_creative=GJZCdgdhCvkOGUConDnXPg&utm_campaign=yelp_api_v3&utm_medium=api_v3_business_search&utm_source=GJZCdgdhCvkOGUConDnXPg", "review_count": 3, "categories": [{"alias": "japanese", "title": "Japanese"}, {"alias": "sushi", "title": "Sushi Bars"}], "rating": 4.5, "coordinates": {"latitude": 42.75881, "longitude": -84.47587}, "transactions": [], "location": {"address1": "3340 E Lake Lansing Rd", "address2": "", "address3": null, "city": "East Lansing", "zip_code": "48823", "country": "US", "state": "MI", "display_address": ["3340 E Lake Lansing Rd", "East Lansing, MI 48823"]}, "phone": "+15178168666", "display_phone": "(517) 816-8666", "distance": 2156.212298633712}], "total": 522, "region": {"center": {"longitude": -84.4759368896, "latitude": 42.7394365225}}}